station_id,name,lat,lng
shinjuku-east,新宿,35.690455,139.700564
shibuya-hachiko,渋谷,35.659500,139.700464
ikebukuro-east,池袋,35.730278,139.711389
shinagawa-takanawa,品川,35.628471,139.739345
tokyo-marunouchi,東京,35.681236,139.767125
nakano-north,中野,35.705749,139.665722
meguro-west,目黒,35.633998,139.715828
ebisu-west,恵比寿,35.646690,139.710106
